airport_id,name,iata,lat,lon
1,Los Angeles Intl,LAX,33.9416,-118.4085
2,San Francisco Intl,SFO,37.6213,-122.3790
3,Dallas Fort Worth,DFW,32.8998,-97.0403
4,Chicago O Hare,ORD,41.9742,-87.9073
5,New York JFK,JFK,40.6413,-73.7781
6,Atlanta ATL,ATL,33.6407,-84.4277
7,Miami Intl,MIA,25.7959,-80.2870
8,Seattle Tacoma,SEA,47.4502,-122.3088
9,Denver Intl,DEN,39.8561,-104.6737
10,London Heathrow,LHR,51.4700,-0.4543
